location,precision,arrondissement,format_1m2,format_2m2,coordinates,geometry,arr_raw,arr_extracted,arrondissement_clean,total_panels,total_area,latitude,longitude
"42, rue Madame",Ecole élémentaire,75006.0,1.0,0.0,"{'lon': 2.331602, 'lat': 48.848934}","{'lon': 2.331602, 'lat': 48.848934}",75006.0,75006,6,1.0,1.0,48.848934,2.331602
"31, rue Pierre Semard",Panneau A,75009.0,0.0,1.0,"{'lon': 2.348291, 'lat': 48.879105}","{'lon': 2.348291, 'lat': 48.879105}",75009.0,75009,9,1.0,2.0,48.879105,2.348291
"24, rue Saint Sébastien",,75011.0,0.0,1.0,"{'lon': 2.369434, 'lat': 48.861114}","{'lon': 2.369434, 'lat': 48.861114}",75011.0,75011,11,1.0,2.0,48.861114,2.369434
"132, rue d Alésia",,75014.0,0.0,1.0,"{'lon': 2.319421, 'lat': 48.830516}","{'lon': 2.319421, 'lat': 48.830516}",75014.0,75014,14,1.0,2.0,48.830516,2.319421
"4-6, rue du Bessin",Angle rue du Bessin et rue Castagnary,75015.0,0.0,1.0,"{'lon': 2.305727, 'lat': 48.831051}","{'lon': 2.305727, 'lat': 48.831051}",75015.0,75015,15,1.0,2.0,48.831051,2.305727
"6, avenue de la porte de Clichy",,75017.0,0.0,1.0,"{'lon': 2.313008, 'lat': 48.894694}","{'lon': 2.313008, 'lat': 48.894694}",75017.0,75017,17,1.0,2.0,48.894694,2.313008
"2, rue Ronsard",,75018.0,0.0,1.0,"{'lon': 2.344249, 'lat': 48.884999}","{'lon': 2.344249, 'lat': 48.884999}",75018.0,75018,18,1.0,2.0,48.884999,2.344249
"1, rue Pihet",,75011.0,0.0,1.0,"{'lon': 2.373882, 'lat': 48.863455}","{'lon': 2.373882, 'lat': 48.863455}",75011.0,75011,11,1.0,2.0,48.863455,2.373882
"35, rue de l Evangile",,75018.0,0.0,1.0,"{'lon': 2.365278, 'lat': 48.894071}","{'lon': 2.365278, 'lat': 48.894071}",75018.0,75018,18,1.0,2.0,48.894071,2.365278
"97, rue Mouffetard",Ecole maternelle,75005.0,1.0,0.0,"{'lon': 2.349685, 'lat': 48.84134}","{'lon': 2.349685, 'lat': 48.84134}",75005.0,75005,5,1.0,1.0,48.84134,2.349685
"6, rue Littré",Groupe scolaire,75006.0,1.0,0.0,"{'lon': 2.323705, 'lat': 48.845747}","{'lon': 2.323705, 'lat': 48.845747}",75006.0,75006,6,1.0,1.0,48.845747,2.323705
rue Lachelier,place port au prince,75013.0,0.0,1.0,"{'lon': 2.365939, 'lat': 48.819702}","{'lon': 2.365939, 'lat': 48.819702}",75013.0,75013,13,1.0,2.0,48.819702,2.365939
"13, rue Vulpian",,75013.0,0.0,1.0,"{'lon': 2.34649, 'lat': 48.83154}","{'lon': 2.34649, 'lat': 48.83154}",75013.0,75013,13,1.0,2.0,48.83154,2.34649
"59/59bis, rue de Romainville",Ecole maternelle Romainville,75019.0,0.0,1.0,"{'lon': 2.403386, 'lat': 48.877388}","{'lon': 2.403386, 'lat': 48.877388}",75019.0,75019,19,1.0,2.0,48.877388,2.403386
"3, rue de l'Epée de Bois",Dispensaire Epée de bois,75005.0,1.0,0.0,"{'lon': 2.351354, 'lat': 48.841557}","{'lon': 2.351354, 'lat': 48.841557}",75005.0,75005,5,1.0,1.0,48.841557,2.351354
"15, rue des Volontaires",,75015.0,0.0,1.0,"{'lon': 2.307794, 'lat': 48.841682}","{'lon': 2.307794, 'lat': 48.841682}",75015.0,75015,15,1.0,2.0,48.841682,2.307794
"32-34, rue Alsace Lorraine",,75019.0,0.0,1.0,"{'lon': 2.392785, 'lat': 48.882991}","{'lon': 2.392785, 'lat': 48.882991}",75019.0,75019,19,1.0,2.0,48.882991,2.392785
"34-54, avenue Marc Sangnier",,75014.0,0.0,1.0,"{'lon': 2.30741, 'lat': 48.825938}","{'lon': 2.30741, 'lat': 48.825938}",75014.0,75014,14,1.0,2.0,48.825938,2.30741
Avenue de la Porte de Pantin,,75019.0,0.0,1.0,"{'lon': 2.397958, 'lat': 48.88998}","{'lon': 2.397958, 'lat': 48.88998}",75019.0,75019,19,1.0,2.0,48.88998,2.397958
10 rue Huyghens,,75014.0,0.0,1.0,"{'lon': 2.328593, 'lat': 48.840883}","{'lon': 2.328593, 'lat': 48.840883}",75014.0,75014,14,1.0,2.0,48.840883,2.328593
"58-60, rue de l Amiral Bruix",,75016.0,0.0,1.0,"{'lon': 2.280587, 'lat': 48.875254}","{'lon': 2.280587, 'lat': 48.875254}",75016.0,75016,16,1.0,2.0,48.875254,2.280587
"11, rue Drouot",,75009.0,0.0,1.0,"{'lon': 2.34045, 'lat': 48.873382}","{'lon': 2.34045, 'lat': 48.873382}",75009.0,75009,9,1.0,2.0,48.873382,2.34045
"58, rue Erlanger",,75016.0,0.0,1.0,"{'lon': 2.259622, 'lat': 48.844134}","{'lon': 2.259622, 'lat': 48.844134}",75016.0,75016,16,1.0,2.0,48.844134,2.259622
"41, rue de Tanger",,75019.0,0.0,1.0,"{'lon': 2.370231, 'lat': 48.887761}","{'lon': 2.370231, 'lat': 48.887761}",75019.0,75019,19,1.0,2.0,48.887761,2.370231
"38, rue de tourtille",,75020.0,1.0,0.0,"{'lon': 2.380281, 'lat': 48.872432}","{'lon': 2.380281, 'lat': 48.872432}",75020.0,75020,20,1.0,1.0,48.872432,2.380281
"48, rue du Chateau Landon",,75010.0,0.0,1.0,"{'lon': 2.364032, 'lat': 48.883223}","{'lon': 2.364032, 'lat': 48.883223}",75010.0,75010,10,1.0,2.0,48.883223,2.364032
"école élémentaire : 84, rue Curial",,75019.0,0.0,1.0,"{'lon': 2.374613, 'lat': 48.894902}","{'lon': 2.374613, 'lat': 48.894902}",75019.0,75019,19,1.0,2.0,48.894902,2.374613
"29, avenue Gambetta",,75020.0,1.0,0.0,"{'lon': 2.391763, 'lat': 48.864014}","{'lon': 2.391763, 'lat': 48.864014}",75020.0,75020,20,1.0,1.0,48.864014,2.391763
"36, rue le Vau",,75020.0,0.0,1.0,"{'lon': 2.410873, 'lat': 48.869824}","{'lon': 2.410873, 'lat': 48.869824}",75020.0,75020,20,1.0,2.0,48.869824,2.410873
"85, boulevard Raspail",,75006.0,0.0,1.0,"{'lon': 2.328112, 'lat': 48.847852}","{'lon': 2.328112, 'lat': 48.847852}",75006.0,75006,6,1.0,2.0,48.847852,2.328112
"14, rue d Alésia",,75014.0,0.0,1.0,"{'lon': 2.332862, 'lat': 48.827862}","{'lon': 2.332862, 'lat': 48.827862}",75014.0,75014,14,1.0,2.0,48.827862,2.332862
"39, rue Saint-André des Arts",Ecole maternelle,75006.0,1.0,0.0,"{'lon': 2.341287, 'lat': 48.853272}","{'lon': 2.341287, 'lat': 48.853272}",75006.0,75006,6,1.0,1.0,48.853272,2.341287
"54, rue Planchat",,75020.0,0.0,1.0,"{'lon': 2.3964689999999997, 'lat': 48.855971}","{'lon': 2.3964689999999997, 'lat': 48.855971}",75020.0,75020,20,1.0,2.0,48.855971,2.3964689999999997
"162, boulevard Murat",,75016.0,0.0,1.0,"{'lon': 2.26544, 'lat': 48.838878}","{'lon': 2.26544, 'lat': 48.838878}",75016.0,75016,16,1.0,2.0,48.838878,2.26544
"15, Cour Debille",,75011.0,0.0,1.0,"{'lon': 2.379842, 'lat': 48.855876}","{'lon': 2.379842, 'lat': 48.855876}",75011.0,75011,11,1.0,2.0,48.855876,2.379842
"345-347, rue de Belleville",Ecole maternelle Leman-Belleville,75019.0,0.0,1.0,"{'lon': 2.391482, 'lat': 48.874919}","{'lon': 2.391482, 'lat': 48.874919}",75019.0,75019,19,1.0,2.0,48.874919,2.391482
"28, rue Olivier Métra",,75020.0,0.0,1.0,"{'lon': 2.393873, 'lat': 48.87328}","{'lon': 2.393873, 'lat': 48.87328}",75020.0,75020,20,1.0,2.0,48.87328,2.393873
"8, rue  Pierre Foncin",Ecole Maternelle P. Foncin,75020.0,1.0,0.0,"{'lon': 2.409702, 'lat': 48.871358}","{'lon': 2.409702, 'lat': 48.871358}",75020.0,75020,20,1.0,1.0,48.871358,2.409702
"50, rue Emeriau",,75015.0,0.0,1.0,"{'lon': 2.286048, 'lat': 48.849521}","{'lon': 2.286048, 'lat': 48.849521}",75015.0,75015,15,1.0,2.0,48.849521,2.286048
"7, rue Fernand Laborie",,75018.0,0.0,1.0,"{'lon': 2.342267, 'lat': 48.898533}","{'lon': 2.342267, 'lat': 48.898533}",75018.0,75018,18,1.0,2.0,48.898533,2.342267
"101, rue Rambuteau",(porte Rambuteau du Forum),75001.0,1.0,0.0,"{'lon': 2.346663, 'lat': 48.862744}","{'lon': 2.346663, 'lat': 48.862744}",75001.0,75001,1,1.0,1.0,48.862744,2.346663
"50, rue Lacépède",Bains-Douches,75005.0,1.0,0.0,"{'lon': 2.349986, 'lat': 48.84438}","{'lon': 2.349986, 'lat': 48.84438}",75005.0,75005,5,1.0,1.0,48.84438,2.349986
100 rue de Charenton -,"Le ""100""",75012.0,1.0,0.0,"{'lon': 2.376957, 'lat': 48.847696}","{'lon': 2.376957, 'lat': 48.847696}",75012.0,75012,12,1.0,1.0,48.847696,2.376957
"118, quai de Jemmapes",,75010.0,0.0,1.0,"{'lon': 2.36381, 'lat': 48.874978}","{'lon': 2.36381, 'lat': 48.874978}",75010.0,75010,10,1.0,2.0,48.874978,2.36381
"10, boulevard Murat",,75016.0,0.0,1.0,"{'lon': 2.258228, 'lat': 48.846838}","{'lon': 2.258228, 'lat': 48.846838}",75016.0,75016,16,1.0,2.0,48.846838,2.258228
"13-15, rue Jean de la Fontaine",,75016.0,0.0,1.0,"{'lon': 2.270749, 'lat': 48.850615}","{'lon': 2.270749, 'lat': 48.850615}",75016.0,75016,16,1.0,2.0,48.850615,2.270749
"101, rue de Saussure",,75017.0,0.0,1.0,"{'lon': 2.311703, 'lat': 48.887438}","{'lon': 2.311703, 'lat': 48.887438}",75017.0,75017,17,1.0,2.0,48.887438,2.311703
"20, rue de Musset",,75016.0,0.0,1.0,"{'lon': 2.263429, 'lat': 48.842381}","{'lon': 2.263429, 'lat': 48.842381}",75016.0,75016,16,1.0,2.0,48.842381,2.263429
"37, rue Armand Carrel",,75019.0,0.0,1.0,"{'lon': 2.377818, 'lat': 48.882603}","{'lon': 2.377818, 'lat': 48.882603}",75019.0,75019,19,1.0,2.0,48.882603,2.377818
"81-91, Rue de la Réunion",Ecole maternelle,75020.0,1.0,0.0,"{'lon': 2.40025, 'lat': 48.85645}","{'lon': 2.40025, 'lat': 48.85645}",75020.0,75020,20,1.0,1.0,48.85645,2.40025
angle Alibert / Claude Vellefaux,,75010.0,0.0,1.0,"{'lon': 2.370246, 'lat': 48.874893}","{'lon': 2.370246, 'lat': 48.874893}",75010.0,75010,10,1.0,2.0,48.874893,2.370246
"16, rue Wurtz",,75013.0,1.0,0.0,"{'lon': 2.344612, 'lat': 48.826924}","{'lon': 2.344612, 'lat': 48.826924}",75013.0,75013,13,1.0,1.0,48.826924,2.344612
"22, rue Saint Maur",,75011.0,0.0,1.0,"{'lon': 2.382034, 'lat': 48.860315}","{'lon': 2.382034, 'lat': 48.860315}",75011.0,75011,11,1.0,2.0,48.860315,2.382034
"200, rue Saint Maur",,75010.0,0.0,1.0,"{'lon': 2.3716749999999998, 'lat': 48.872242}","{'lon': 2.3716749999999998, 'lat': 48.872242}",75010.0,75010,10,1.0,2.0,48.872242,2.3716749999999998
47 rue de Picpus,Ecole - à droite de l'entrée,75012.0,1.0,0.0,"{'lon': 2.39699, 'lat': 48.843372}","{'lon': 2.39699, 'lat': 48.843372}",75012.0,75012,12,1.0,1.0,48.843372,2.39699
"18, avenue de la porte de Chatillon",,75014.0,0.0,1.0,"{'lon': 2.317013, 'lat': 48.823693}","{'lon': 2.317013, 'lat': 48.823693}",75014.0,75014,14,1.0,2.0,48.823693,2.317013
"315, rue de Charenton",,75012.0,0.0,1.0,"{'lon': 2.395135, 'lat': 48.833639}","{'lon': 2.395135, 'lat': 48.833639}",75012.0,75012,12,1.0,2.0,48.833639,2.395135
"12, rue du Docteur Laurent",,75013.0,0.0,1.0,"{'lon': 2.355973, 'lat': 48.824915}","{'lon': 2.355973, 'lat': 48.824915}",75013.0,75013,13,1.0,2.0,48.824915,2.355973
"3, avenue Boudon / angle rue du Père Brottier",,75016.0,0.0,1.0,"{'lon': 2.270562, 'lat': 48.850202}","{'lon': 2.270562, 'lat': 48.850202}",75016.0,75016,16,1.0,2.0,48.850202,2.270562
"13, rue de Tanger",,75019.0,0.0,1.0,"{'lon': 2.367735, 'lat': 48.885177}","{'lon': 2.367735, 'lat': 48.885177}",75019.0,75019,19,1.0,2.0,48.885177,2.367735
"48, rue Vaneau",,75007.0,0.0,1.0,"{'lon': 2.31916, 'lat': 48.851211}","{'lon': 2.31916, 'lat': 48.851211}",75007.0,75007,7,1.0,2.0,48.851211,2.31916
83 avenue du Général Michel Bizot,Ecole - à droite de l'entrée,75012.0,1.0,0.0,"{'lon': 2.403541, 'lat': 48.837242}","{'lon': 2.403541, 'lat': 48.837242}",75012.0,75012,12,1.0,1.0,48.837242,2.403541
51 rue François Truffaut,Centre d'Animation CLAJE Bercy - à droite de l'entrée,75012.0,1.0,0.0,"{'lon': 2.387186, 'lat': 48.834272}","{'lon': 2.387186, 'lat': 48.834272}",75012.0,75012,12,1.0,1.0,48.834272,2.387186
"229, rue de Courcelles",,75017.0,0.0,1.0,"{'lon': 2.292691, 'lat': 48.889534}","{'lon': 2.292691, 'lat': 48.889534}",75017.0,75017,17,1.0,2.0,48.889534,2.292691
6 rue de Metz,,75010.0,0.0,1.0,"{'lon': 2.35392, 'lat': 48.870887}","{'lon': 2.35392, 'lat': 48.870887}",75010.0,75010,10,1.0,2.0,48.870887,2.35392
"26, boulevard Carnot",,75012.0,0.0,1.0,"{'lon': 2.412916, 'lat': 48.843494}","{'lon': 2.412916, 'lat': 48.843494}",75012.0,75012,12,1.0,2.0,48.843494,2.412916
30 Rue de la Breche aux loups,,75012.0,0.0,1.0,"{'lon': 2.394145, 'lat': 48.837481}","{'lon': 2.394145, 'lat': 48.837481}",75012.0,75012,12,1.0,2.0,48.837481,2.394145
"47, rue de Saussure",,75017.0,0.0,1.0,"{'lon': 2.314919, 'lat': 48.885256}","{'lon': 2.314919, 'lat': 48.885256}",75017.0,75017,17,1.0,2.0,48.885256,2.314919
"31, rue Godeffroy Cavaignac",,75011.0,0.0,1.0,"{'lon': 2.380504, 'lat': 48.856139}","{'lon': 2.380504, 'lat': 48.856139}",75011.0,75011,11,1.0,2.0,48.856139,2.380504
112 Boulevards des Maréchaux,Angle Marechaux / rue de l Abbé Rousselot,75017.0,0.0,1.0,"{'lon': 2.309226, 'lat': 48.883796}","{'lon': 2.309226, 'lat': 48.883796}",75017.0,75017,17,1.0,2.0,48.883796,2.309226
"81, boulevard Massena",,75013.0,0.0,1.0,"{'lon': 2.368247, 'lat': 48.820839}","{'lon': 2.368247, 'lat': 48.820839}",75013.0,75013,13,1.0,2.0,48.820839,2.368247
"15-17, rue Rampal",,75019.0,0.0,1.0,"{'lon': 2.379553, 'lat': 48.874325}","{'lon': 2.379553, 'lat': 48.874325}",75019.0,75019,19,1.0,2.0,48.874325,2.379553
"49, boulevard Menilmontant",,75011.0,0.0,1.0,"{'lon': 2.3865309999999997, 'lat': 48.862694}","{'lon': 2.3865309999999997, 'lat': 48.862694}",75011.0,75011,11,1.0,2.0,48.862694,2.3865309999999997
95 rue du temple,,75003.0,1.0,0.0,"{'lon': 2.356976, 'lat': 48.862048}","{'lon': 2.356976, 'lat': 48.862048}",75003.0,75003,3,1.0,1.0,48.862048,2.356976
"6, avenue Maurice Ravel",,75012.0,0.0,1.0,"{'lon': 2.411745, 'lat': 48.841801}","{'lon': 2.411745, 'lat': 48.841801}",75012.0,75012,12,1.0,2.0,48.841801,2.411745
"7, rue Paul Appell",,75014.0,0.0,1.0,"{'lon': 2.326294, 'lat': 48.821674}","{'lon': 2.326294, 'lat': 48.821674}",75014.0,75014,14,1.0,2.0,48.821674,2.326294
"8, square Lamarck",,75018.0,0.0,1.0,"{'lon': 2.335818, 'lat': 48.890833}","{'lon': 2.335818, 'lat': 48.890833}",75018.0,75018,18,1.0,2.0,48.890833,2.335818
"87, avenue Jean Jaurès",,75019.0,0.0,1.0,"{'lon': 2.379333, 'lat': 48.885302}","{'lon': 2.379333, 'lat': 48.885302}",75019.0,75019,19,1.0,2.0,48.885302,2.379333
"26, rue Boulay","Centre sportif Bernard Lafay, angle rue de la Joncquière",75017.0,0.0,1.0,"{'lon': 2.318374, 'lat': 48.894664}","{'lon': 2.318374, 'lat': 48.894664}",75017.0,75017,17,1.0,2.0,48.894664,2.318374
"29, rue Hermel",Bibliothèque Clignancourt,75018.0,0.0,1.0,"{'lon': 2.344508, 'lat': 48.891616}","{'lon': 2.344508, 'lat': 48.891616}",75018.0,75018,18,1.0,2.0,48.891616,2.344508
"8, rue Sadi Lecointe",,75019.0,0.0,1.0,"{'lon': 2.373876, 'lat': 48.880356}","{'lon': 2.373876, 'lat': 48.880356}",75019.0,75019,19,1.0,2.0,48.880356,2.373876
"21, rue Saint Louis en l'Isle",,75004.0,0.0,1.0,"{'lon': 2.3572509999999998, 'lat': 48.851526}","{'lon': 2.3572509999999998, 'lat': 48.851526}",75004.0,75004,4,1.0,2.0,48.851526,2.3572509999999998
"2, rue Eugène Reisz",,75020.0,0.0,1.0,"{'lon': 2.410685, 'lat': 48.85643}","{'lon': 2.410685, 'lat': 48.85643}",75020.0,75020,20,1.0,2.0,48.85643,2.410685
"40, rue Vandrezane",,75013.0,0.0,1.0,"{'lon': 2.35322, 'lat': 48.827774}","{'lon': 2.35322, 'lat': 48.827774}",75013.0,75013,13,1.0,2.0,48.827774,2.35322
15-33 Avenue de la Porte des Poissonniers,angle rue Jean Cocteau / avenue porte de Poissonniers,75018.0,0.0,1.0,"{'lon': 2.352423, 'lat': 48.899663}","{'lon': 2.352423, 'lat': 48.899663}",75018.0,75018,18,1.0,2.0,48.899663,2.352423
"5, rue Noyer Durand",Ecole maternelle,75019.0,0.0,1.0,"{'lon': 2.399121, 'lat': 48.886727}","{'lon': 2.399121, 'lat': 48.886727}",75019.0,75019,19,1.0,2.0,48.886727,2.399121
"23, rue Jacquier",,75014.0,0.0,1.0,"{'lon': 2.316987, 'lat': 48.829979}","{'lon': 2.316987, 'lat': 48.829979}",75014.0,75014,14,1.0,2.0,48.829979,2.316987
"160-162, rue Championnet",,75018.0,0.0,1.0,"{'lon': 2.340169, 'lat': 48.895048}","{'lon': 2.340169, 'lat': 48.895048}",75018.0,75018,18,1.0,2.0,48.895048,2.340169
64 rue de Beaubourg,,75003.0,1.0,0.0,"{'lon': 2.354553, 'lat': 48.863243}","{'lon': 2.354553, 'lat': 48.863243}",75003.0,75003,3,1.0,1.0,48.863243,2.354553
"40, rue des Meuniers",,75012.0,0.0,1.0,"{'lon': 2.396294, 'lat': 48.834878}","{'lon': 2.396294, 'lat': 48.834878}",75012.0,75012,12,1.0,2.0,48.834878,2.396294
"18, rue Jean Zay",,75014.0,0.0,1.0,"{'lon': 2.320578, 'lat': 48.837607}","{'lon': 2.320578, 'lat': 48.837607}",75014.0,75014,14,1.0,2.0,48.837607,2.320578
"130, boulevard de Clichy",Panneau A : face au 130,75009.0,0.0,1.0,"{'lon': 2.334409, 'lat': 48.882984}","{'lon': 2.334409, 'lat': 48.882984}",75009.0,75009,9,1.0,2.0,48.882984,2.334409
"3, passage Bullourde",,75011.0,0.0,1.0,"{'lon': 2.376653, 'lat': 48.854709}","{'lon': 2.376653, 'lat': 48.854709}",75011.0,75011,11,1.0,2.0,48.854709,2.376653
"103, rue de la Croix Nivert",,75015.0,0.0,1.0,"{'lon': 2.294888, 'lat': 48.842595}","{'lon': 2.294888, 'lat': 48.842595}",75015.0,75015,15,1.0,2.0,48.842595,2.294888
"11, rue Jean Rey",angle avenue de Suffren / rue Jean Rey,75015.0,0.0,1.0,"{'lon': 2.291447, 'lat': 48.855395}","{'lon': 2.291447, 'lat': 48.855395}",75015.0,75015,15,1.0,2.0,48.855395,2.291447
"82, rue Pernetty",,75014.0,0.0,1.0,"{'lon': 2.315742, 'lat': 48.835399}","{'lon': 2.315742, 'lat': 48.835399}",75014.0,75014,14,1.0,2.0,48.835399,2.315742
9 rue Polonceau,angle rue Polonceau / rue Boris Vian,75018.0,0.0,1.0,"{'lon': 2.353862, 'lat': 48.885396}","{'lon': 2.353862, 'lat': 48.885396}",75018.0,75018,18,1.0,2.0,48.885396,2.353862
53 allée Darius Milhaud,Ecole maternelle,75019.0,0.0,1.0,"{'lon': 2.390867, 'lat': 48.88457}","{'lon': 2.390867, 'lat': 48.88457}",75019.0,75019,19,1.0,2.0,48.88457,2.390867
"293, rue des Pyrénées",,75020.0,0.0,1.0,"{'lon': 2.394918, 'lat': 48.869368}","{'lon': 2.394918, 'lat': 48.869368}",75020.0,75020,20,1.0,2.0,48.869368,2.394918
"18, rue Faidherbe",,75011.0,0.0,1.0,"{'lon': 2.383955, 'lat': 48.851602}","{'lon': 2.383955, 'lat': 48.851602}",75011.0,75011,11,1.0,2.0,48.851602,2.383955
"18, avenue de la prte Brancion",,75015.0,0.0,1.0,"{'lon': 2.300413, 'lat': 48.826626}","{'lon': 2.300413, 'lat': 48.826626}",75015.0,75015,15,1.0,2.0,48.826626,2.300413
"2, rue Féssart",,75019.0,0.0,1.0,"{'lon': 2.38915, 'lat': 48.876172}","{'lon': 2.38915, 'lat': 48.876172}",75019.0,75019,19,1.0,2.0,48.876172,2.38915
"5, rue Mouraud",Ecole élémentaire,75020.0,0.0,1.0,"{'lon': 2.407777, 'lat': 48.854708}","{'lon': 2.407777, 'lat': 48.854708}",75020.0,75020,20,1.0,2.0,48.854708,2.407777
"25, rue de Rivoli",,75004.0,0.0,1.0,"{'lon': 2.355152, 'lat': 48.856693}","{'lon': 2.355152, 'lat': 48.856693}",75004.0,75004,4,1.0,2.0,48.856693,2.355152
15 Rue Girardon,,75018.0,0.0,1.0,"{'lon': 2.33782, 'lat': 48.888084}","{'lon': 2.33782, 'lat': 48.888084}",75018.0,75018,18,1.0,2.0,48.888084,2.33782
104-106 Rue Compans,Angle  rue du Général Brunet,75019.0,0.0,1.0,"{'lon': 2.389772, 'lat': 48.880396}","{'lon': 2.389772, 'lat': 48.880396}",75019.0,75019,19,1.0,2.0,48.880396,2.389772
"24, rue de la Cour des Noues",,75020.0,1.0,0.0,"{'lon': 2.401004, 'lat': 48.864378}","{'lon': 2.401004, 'lat': 48.864378}",75020.0,75020,20,1.0,1.0,48.864378,2.401004
"68, boulevard Poniatowski",,75012.0,0.0,1.0,"{'lon': 2.399323, 'lat': 48.832161}","{'lon': 2.399323, 'lat': 48.832161}",75012.0,75012,12,1.0,2.0,48.832161,2.399323
"77, rue d Alésia",,75014.0,0.0,1.0,"{'lon': 2.327953, 'lat': 48.82773}","{'lon': 2.327953, 'lat': 48.82773}",75014.0,75014,14,1.0,2.0,48.82773,2.327953
"9, rue des Alouettes",,75019.0,0.0,1.0,"{'lon': 2.385354, 'lat': 48.877519}","{'lon': 2.385354, 'lat': 48.877519}",75019.0,75019,19,1.0,2.0,48.877519,2.385354
"7, rue Barbanègre","école élémentaire, Panneau A",75019.0,0.0,1.0,"{'lon': 2.382858, 'lat': 48.892135}","{'lon': 2.382858, 'lat': 48.892135}",75019.0,75019,19,1.0,2.0,48.892135,2.382858
"17-19, rue Blomet",,75015.0,0.0,1.0,"{'lon': 2.307197, 'lat': 48.843156}","{'lon': 2.307197, 'lat': 48.843156}",75015.0,75015,15,1.0,2.0,48.843156,2.307197
"42, rue de la Mare",,75020.0,1.0,0.0,"{'lon': 2.389959, 'lat': 48.871094}","{'lon': 2.389959, 'lat': 48.871094}",75020.0,75020,20,1.0,1.0,48.871094,2.389959
"148, avenue Gambetta",,75020.0,0.0,1.0,"{'lon': 2.406186, 'lat': 48.875389}","{'lon': 2.406186, 'lat': 48.875389}",75020.0,75020,20,1.0,2.0,48.875389,2.406186
"11, rue Valette",Creche,75005.0,1.0,0.0,"{'lon': 2.3469160000000002, 'lat': 48.847557}","{'lon': 2.3469160000000002, 'lat': 48.847557}",75005.0,75005,5,1.0,1.0,48.847557,2.3469160000000002
"88, boulevard Bessière",,75017.0,0.0,1.0,"{'lon': 2.319314, 'lat': 48.896536}","{'lon': 2.319314, 'lat': 48.896536}",75017.0,75017,17,1.0,2.0,48.896536,2.319314
"17, avenue Edison",,75013.0,0.0,1.0,"{'lon': 2.3642849999999997, 'lat': 48.827738}","{'lon': 2.3642849999999997, 'lat': 48.827738}",75013.0,75013,13,1.0,2.0,48.827738,2.3642849999999997
"2, rue de la Guadeloupe",,75018.0,0.0,1.0,"{'lon': 2.362625, 'lat': 48.890753}","{'lon': 2.362625, 'lat': 48.890753}",75018.0,75018,18,1.0,2.0,48.890753,2.362625
"36, rue Féssart",,75019.0,0.0,1.0,"{'lon': 2.384217, 'lat': 48.876827}","{'lon': 2.384217, 'lat': 48.876827}",75019.0,75019,19,1.0,2.0,48.876827,2.384217
"5, place Paul Verlaine",,75013.0,0.0,1.0,"{'lon': 2.352475, 'lat': 48.827428}","{'lon': 2.352475, 'lat': 48.827428}",75013.0,75013,13,1.0,2.0,48.827428,2.352475
"5, place Hebert",,75018.0,0.0,1.0,"{'lon': 2.363213, 'lat': 48.893105}","{'lon': 2.363213, 'lat': 48.893105}",75018.0,75018,18,1.0,2.0,48.893105,2.363213
"26, rue Maryse Hilz",,75020.0,0.0,1.0,"{'lon': 2.412878, 'lat': 48.852133}","{'lon': 2.412878, 'lat': 48.852133}",75020.0,75020,20,1.0,2.0,48.852133,2.412878
"46/48, rue du Rocher",,75008.0,0.0,1.0,"{'lon': 2.320526, 'lat': 48.877866}","{'lon': 2.320526, 'lat': 48.877866}",75008.0,75008,8,1.0,2.0,48.877866,2.320526
"115, boulevard Charonne",,75011.0,0.0,1.0,"{'lon': 2.393939, 'lat': 48.856591}","{'lon': 2.393939, 'lat': 48.856591}",75011.0,75011,11,1.0,2.0,48.856591,2.393939
"15, rue Guersant",,75017.0,0.0,1.0,"{'lon': 2.290199, 'lat': 48.880565}","{'lon': 2.290199, 'lat': 48.880565}",75017.0,75017,17,1.0,2.0,48.880565,2.290199
"16, rue de l Atlas",,75019.0,0.0,1.0,"{'lon': 2.376595, 'lat': 48.875505}","{'lon': 2.376595, 'lat': 48.875505}",75019.0,75019,19,1.0,2.0,48.875505,2.376595
"18, rue Maryse Hilsz",,75020.0,0.0,1.0,"{'lon': 2.412835, 'lat': 48.850531}","{'lon': 2.412835, 'lat': 48.850531}",75020.0,75020,20,1.0,2.0,48.850531,2.412835
"19, rue de l'arbre sec",,75001.0,0.0,1.0,"{'lon': 2.342026, 'lat': 48.859896}","{'lon': 2.342026, 'lat': 48.859896}",75001.0,75001,1,1.0,2.0,48.859896,2.342026
"4, rue Cler",,75007.0,0.0,1.0,"{'lon': 2.305271, 'lat': 48.85878}","{'lon': 2.305271, 'lat': 48.85878}",75007.0,75007,7,1.0,2.0,48.85878,2.305271
"22, boulevard Poissonnière",Panneau A,75009.0,0.0,1.0,"{'lon': 2.345109, 'lat': 48.871326}","{'lon': 2.345109, 'lat': 48.871326}",75009.0,75009,9,1.0,2.0,48.871326,2.345109
"142, rue des Poissonniers",,75018.0,0.0,1.0,"{'lon': 2.352861, 'lat': 48.896602}","{'lon': 2.352861, 'lat': 48.896602}",75018.0,75018,18,1.0,2.0,48.896602,2.352861
"112, rue de Rennes",centre André Malraux,75006.0,1.0,0.0,"{'lon': 2.327529, 'lat': 48.847869}","{'lon': 2.327529, 'lat': 48.847869}",75006.0,75006,6,1.0,1.0,48.847869,2.327529
"28, rue du Général Foy",Panneau A,75008.0,0.0,1.0,"{'lon': 2.317688, 'lat': 48.878822}","{'lon': 2.317688, 'lat': 48.878822}",75008.0,75008,8,1.0,2.0,48.878822,2.317688
"45-59, rue de Romainville",Ecole maternelle Romainville,75019.0,0.0,1.0,"{'lon': 2.403219, 'lat': 48.877377}","{'lon': 2.403219, 'lat': 48.877377}",75019.0,75019,19,1.0,2.0,48.877377,2.403219
square des Amandiers,passage Duris,75020.0,0.0,1.0,"{'lon': 2.389248, 'lat': 48.86577}","{'lon': 2.389248, 'lat': 48.86577}",75020.0,75020,20,1.0,2.0,48.86577,2.389248
"30/40, rue Emeriau",,75015.0,0.0,1.0,"{'lon': 2.286149, 'lat': 48.849731}","{'lon': 2.286149, 'lat': 48.849731}",75015.0,75015,15,1.0,2.0,48.849731,2.286149
"4-8, rue Brunetiere",,75017.0,0.0,1.0,"{'lon': 2.30087, 'lat': 48.890317}","{'lon': 2.30087, 'lat': 48.890317}",75017.0,75017,17,1.0,2.0,48.890317,2.30087
"6, rue pommard",,75012.0,0.0,1.0,"{'lon': 2.384587, 'lat': 48.835968}","{'lon': 2.384587, 'lat': 48.835968}",75012.0,75012,12,1.0,2.0,48.835968,2.384587
"5bis, rue Eugène Oudine",,75013.0,0.0,1.0,"{'lon': 2.375676, 'lat': 48.825781}","{'lon': 2.375676, 'lat': 48.825781}",75013.0,75013,13,1.0,2.0,48.825781,2.375676
"7-29, rue Eugénie Cotton",Ecole élémentaire Lilas,75019.0,0.0,1.0,"{'lon': 2.394505, 'lat': 48.878594}","{'lon': 2.394505, 'lat': 48.878594}",75019.0,75019,19,1.0,2.0,48.878594,2.394505
"4, rue Mercoeur",,75011.0,0.0,1.0,"{'lon': 2.383143, 'lat': 48.856892}","{'lon': 2.383143, 'lat': 48.856892}",75011.0,75011,11,1.0,2.0,48.856892,2.383143
40 Jacques Hillairet,Ecole - à gauche de l'entrée,75012.0,1.0,0.0,"{'lon': 2.388838, 'lat': 48.843121}","{'lon': 2.388838, 'lat': 48.843121}",75012.0,75012,12,1.0,1.0,48.843121,2.388838
"22, rue Jean Leclaire",,75017.0,0.0,1.0,"{'lon': 2.327266, 'lat': 48.896619}","{'lon': 2.327266, 'lat': 48.896619}",75017.0,75017,17,1.0,2.0,48.896619,2.327266
"8, rue Jean Francois Lepine",,75018.0,0.0,1.0,"{'lon': 2.358258, 'lat': 48.886176}","{'lon': 2.358258, 'lat': 48.886176}",75018.0,75018,18,1.0,2.0,48.886176,2.358258
"12, rue René Binet",,75018.0,0.0,1.0,"{'lon': 2.342365, 'lat': 48.899487}","{'lon': 2.342365, 'lat': 48.899487}",75018.0,75018,18,1.0,2.0,48.899487,2.342365
"15, rue Sorbier",,75020.0,0.0,1.0,"{'lon': 2.392293, 'lat': 48.866319}","{'lon': 2.392293, 'lat': 48.866319}",75020.0,75020,20,1.0,2.0,48.866319,2.392293
"108, avenue Philippe Auguste",,75011.0,0.0,1.0,"{'lon': 2.390985, 'lat': 48.856704}","{'lon': 2.390985, 'lat': 48.856704}",75011.0,75011,11,1.0,2.0,48.856704,2.390985
"25, rue de la Bidassoa",,75020.0,0.0,1.0,"{'lon': 2.393403, 'lat': 48.866346}","{'lon': 2.393403, 'lat': 48.866346}",75020.0,75020,20,1.0,2.0,48.866346,2.393403
"33, rue Saint Bernard",,75011.0,0.0,1.0,"{'lon': 2.38079, 'lat': 48.852838}","{'lon': 2.38079, 'lat': 48.852838}",75011.0,75011,11,1.0,2.0,48.852838,2.38079
"185, avenue de Versailles",,75016.0,0.0,1.0,"{'lon': 2.263832, 'lat': 48.839895}","{'lon': 2.263832, 'lat': 48.839895}",75016.0,75016,16,1.0,2.0,48.839895,2.263832
"153, avenue Gambetta",,75020.0,1.0,0.0,"{'lon': 2.402914, 'lat': 48.87009}","{'lon': 2.402914, 'lat': 48.87009}",75020.0,75020,20,1.0,1.0,48.87009,2.402914
"36, rue des Docteurs Dejerine",,75020.0,0.0,1.0,"{'lon': 2.411724, 'lat': 48.856862}","{'lon': 2.411724, 'lat': 48.856862}",75020.0,75020,20,1.0,2.0,48.856862,2.411724
"19, rue de Lagny",,75020.0,0.0,1.0,"{'lon': 2.401828, 'lat': 48.848913}","{'lon': 2.401828, 'lat': 48.848913}",75020.0,75020,20,1.0,2.0,48.848913,2.401828
"Face au 8, rue des Recollets",Face au 8,75010.0,0.0,1.0,"{'lon': 2.362063, 'lat': 48.874437}","{'lon': 2.362063, 'lat': 48.874437}",75010.0,75010,10,1.0,2.0,48.874437,2.362063
Place d'Aligre,Mairie Annexe - à droite de l'entrée,75012.0,1.0,0.0,"{'lon': 2.378282, 'lat': 48.848901}","{'lon': 2.378282, 'lat': 48.848901}",75012.0,75012,12,1.0,1.0,48.848901,2.378282
"8, rue Kuss",,75013.0,0.0,1.0,"{'lon': 2.351299, 'lat': 48.822231}","{'lon': 2.351299, 'lat': 48.822231}",75013.0,75013,13,1.0,2.0,48.822231,2.351299
"12, rue Severo",,75014.0,0.0,1.0,"{'lon': 2.323515, 'lat': 48.832453}","{'lon': 2.323515, 'lat': 48.832453}",75014.0,75014,14,1.0,2.0,48.832453,2.323515
"163, boulevard Mortier",,75020.0,0.0,1.0,"{'lon': 2.407428, 'lat': 48.875444}","{'lon': 2.407428, 'lat': 48.875444}",75020.0,75020,20,1.0,2.0,48.875444,2.407428
"91, rue des Orteaux",,75020.0,0.0,1.0,"{'lon': 2.407425, 'lat': 48.855933}","{'lon': 2.407425, 'lat': 48.855933}",75020.0,75020,20,1.0,2.0,48.855933,2.407425
"58, rue de Clisson",,75013.0,0.0,1.0,"{'lon': 2.36599, 'lat': 48.830739}","{'lon': 2.36599, 'lat': 48.830739}",75013.0,75013,13,1.0,2.0,48.830739,2.36599
"1-3, rue des Jardins Saint-Paul",,75004.0,1.0,0.0,"{'lon': 2.360729, 'lat': 48.853472}","{'lon': 2.360729, 'lat': 48.853472}",75004.0,75004,4,1.0,1.0,48.853472,2.360729
"87, rue de Vaugirard",Gymnase Littré,75006.0,1.0,0.0,"{'lon': 2.323206, 'lat': 48.8459}","{'lon': 2.323206, 'lat': 48.8459}",75006.0,75006,6,1.0,1.0,48.8459,2.323206
"56, boulevard Ney",,75018.0,0.0,1.0,"{'lon': 2.3643929999999997, 'lat': 48.898888}","{'lon': 2.3643929999999997, 'lat': 48.898888}",75018.0,75018,18,1.0,2.0,48.898888,2.3643929999999997
"40, rue Manin",Angle rue d'Alsace Lorraine,75019.0,0.0,1.0,"{'lon': 2.390199, 'lat': 48.883806}","{'lon': 2.390199, 'lat': 48.883806}",75019.0,75019,19,1.0,2.0,48.883806,2.390199
"24, rue Louis Braille",,75012.0,0.0,1.0,"{'lon': 2.402816, 'lat': 48.839681}","{'lon': 2.402816, 'lat': 48.839681}",75012.0,75012,12,1.0,2.0,48.839681,2.402816
"61, rue Dunois",,75013.0,0.0,1.0,"{'lon': 2.367048, 'lat': 48.832514}","{'lon': 2.367048, 'lat': 48.832514}",75013.0,75013,13,1.0,2.0,48.832514,2.367048
"146, avenue Félix Faure",,75015.0,0.0,1.0,"{'lon': 2.279298, 'lat': 48.837349}","{'lon': 2.279298, 'lat': 48.837349}",75015.0,75015,15,1.0,2.0,48.837349,2.279298
"62, rue Lepic",,75018.0,0.0,1.0,"{'lon': 2.333966, 'lat': 48.886937}","{'lon': 2.333966, 'lat': 48.886937}",75018.0,75018,18,1.0,2.0,48.886937,2.333966
"9/11, rue de la Plaine",,75020.0,0.0,1.0,"{'lon': 2.400272, 'lat': 48.850003}","{'lon': 2.400272, 'lat': 48.850003}",75020.0,75020,20,1.0,2.0,48.850003,2.400272
"106, rue Compans",,75019.0,0.0,1.0,"{'lon': 2.389772, 'lat': 48.880396}","{'lon': 2.389772, 'lat': 48.880396}",75019.0,75019,19,1.0,2.0,48.880396,2.389772
"13, rue Caillaux",Maison des Associations,75013.0,0.0,1.0,"{'lon': 2.36113, 'lat': 48.822585}","{'lon': 2.36113, 'lat': 48.822585}",75013.0,75013,13,1.0,2.0,48.822585,2.36113
"70, rue Armand Carrel",,75019.0,0.0,1.0,"{'lon': 2.373478, 'lat': 48.882999}","{'lon': 2.373478, 'lat': 48.882999}",75019.0,75019,19,1.0,2.0,48.882999,2.373478
"4, rue Keller",,75011.0,0.0,1.0,"{'lon': 2.376853, 'lat': 48.853623}","{'lon': 2.376853, 'lat': 48.853623}",75011.0,75011,11,1.0,2.0,48.853623,2.376853
"9, rue des Alouettes",Ecole élémentaire Alouettes,75019.0,0.0,1.0,"{'lon': 2.385354, 'lat': 48.877519}","{'lon': 2.385354, 'lat': 48.877519}",75019.0,75019,19,1.0,2.0,48.877519,2.385354
"156, avenue Jean Jaurès",Ecole élémentaire,75019.0,0.0,1.0,"{'lon': 2.387708, 'lat': 48.887206}","{'lon': 2.387708, 'lat': 48.887206}",75019.0,75019,19,1.0,2.0,48.887206,2.387708
"14, rue du renard",,75004.0,0.0,1.0,"{'lon': 2.352294, 'lat': 48.858908}","{'lon': 2.352294, 'lat': 48.858908}",75004.0,75004,4,1.0,2.0,48.858908,2.352294
"16, rue de Roquepine",,75008.0,0.0,1.0,"{'lon': 2.318485, 'lat': 48.873349}","{'lon': 2.318485, 'lat': 48.873349}",75008.0,75008,8,1.0,2.0,48.873349,2.318485
"32, place Jeanne d'Arc",,75013.0,0.0,1.0,"{'lon': 2.368114, 'lat': 48.83056}","{'lon': 2.368114, 'lat': 48.83056}",75013.0,75013,13,1.0,2.0,48.83056,2.368114
"32, rue Pali Kao",,75020.0,1.0,0.0,"{'lon': 2.382195, 'lat': 48.870411}","{'lon': 2.382195, 'lat': 48.870411}",75020.0,75020,20,1.0,1.0,48.870411,2.382195
"71, rue de Richelieu",,75002.0,0.0,1.0,"{'lon': 2.338158, 'lat': 48.868252}","{'lon': 2.338158, 'lat': 48.868252}",75002.0,75002,2,1.0,2.0,48.868252,2.338158
"12, rue Lobineau",Centre sportif Saint-Germain,75006.0,1.0,0.0,"{'lon': 2.33594, 'lat': 48.851743}","{'lon': 2.33594, 'lat': 48.851743}",75006.0,75006,6,1.0,1.0,48.851743,2.33594
20 rue Edouard Pailleron,Maison des associations du 19ème,75019.0,0.0,1.0,"{'lon': 2.376535, 'lat': 48.880402}","{'lon': 2.376535, 'lat': 48.880402}",75019.0,75019,19,1.0,2.0,48.880402,2.376535
"4, rue Lobau",,75004.0,0.0,1.0,"{'lon': 2.353831, 'lat': 48.856578999999996}","{'lon': 2.353831, 'lat': 48.856578999999996}",75004.0,75004,4,1.0,2.0,48.856578999999996,2.353831
"15 bis, rue Buffon",Ecole maternelle Buffon,75005.0,1.0,0.0,"{'lon': 2.361878, 'lat': 48.842548}","{'lon': 2.361878, 'lat': 48.842548}",75005.0,75005,5,1.0,1.0,48.842548,2.361878
"1, rue Jean Calvin",,75005.0,0.0,1.0,"{'lon': 2.348999, 'lat': 48.841614}","{'lon': 2.348999, 'lat': 48.841614}",75005.0,75005,5,1.0,2.0,48.841614,2.348999
"93, rue d Alésia",,75014.0,0.0,1.0,"{'lon': 2.325898, 'lat': 48.828016}","{'lon': 2.325898, 'lat': 48.828016}",75014.0,75014,14,1.0,2.0,48.828016,2.325898
"55/61, rue Maurice Ripoche",,75014.0,0.0,1.0,"{'lon': 2.32257, 'lat': 48.833421}","{'lon': 2.32257, 'lat': 48.833421}",75014.0,75014,14,1.0,2.0,48.833421,2.32257
"11, boulevard de Grenelle",,75015.0,0.0,1.0,"{'lon': 2.289652, 'lat': 48.853969}","{'lon': 2.289652, 'lat': 48.853969}",75015.0,75015,15,1.0,2.0,48.853969,2.289652
"32, boulevard des Maréchaux",,75016.0,0.0,1.0,"{'lon': 2.271846, 'lat': 48.866988}","{'lon': 2.271846, 'lat': 48.866988}",75016.0,75016,16,1.0,2.0,48.866988,2.271846
"74, rue Mouffetard",Bibliothèque,75005.0,1.0,0.0,"{'lon': 2.349672, 'lat': 48.842585}","{'lon': 2.349672, 'lat': 48.842585}",75005.0,75005,5,1.0,1.0,48.842585,2.349672
"4bis, avenue de Choisy",,75013.0,0.0,1.0,"{'lon': 2.364644, 'lat': 48.820451}","{'lon': 2.364644, 'lat': 48.820451}",75013.0,75013,13,1.0,2.0,48.820451,2.364644
"15, rue des Bauches",,75016.0,0.0,1.0,"{'lon': 2.273553, 'lat': 48.855983}","{'lon': 2.273553, 'lat': 48.855983}",75016.0,75016,16,1.0,2.0,48.855983,2.273553
"99, rue des Pyrénées",,75020.0,0.0,1.0,"{'lon': 2.405215, 'lat': 48.855158}","{'lon': 2.405215, 'lat': 48.855158}",75020.0,75020,20,1.0,2.0,48.855158,2.405215
"79, avenue des Gobelins",,75013.0,0.0,1.0,"{'lon': 2.353257, 'lat': 48.834719}","{'lon': 2.353257, 'lat': 48.834719}",75013.0,75013,13,1.0,2.0,48.834719,2.353257
"1, rue Rouvet",,75019.0,0.0,1.0,"{'lon': 2.385131, 'lat': 48.893086}","{'lon': 2.385131, 'lat': 48.893086}",75019.0,75019,19,1.0,2.0,48.893086,2.385131
"1, rue du Général Camou",,75007.0,0.0,1.0,"{'lon': 2.299853, 'lat': 48.858889}","{'lon': 2.299853, 'lat': 48.858889}",75007.0,75007,7,1.0,2.0,48.858889,2.299853
"28, rue du Général Foy",Panneau B,75008.0,0.0,1.0,"{'lon': 2.317688, 'lat': 48.878822}","{'lon': 2.317688, 'lat': 48.878822}",75008.0,75008,8,1.0,2.0,48.878822,2.317688
16 rue de Marsoulan,Ecole - à gauche de l'entrée,75012.0,1.0,0.0,"{'lon': 2.40334, 'lat': 48.846348}","{'lon': 2.40334, 'lat': 48.846348}",75012.0,75012,12,1.0,1.0,48.846348,2.40334
"253bis/253 ter, avenue Daumesnil",,75012.0,0.0,1.0,"{'lon': 2.402889, 'lat': 48.837122}","{'lon': 2.402889, 'lat': 48.837122}",75012.0,75012,12,1.0,2.0,48.837122,2.402889
"1, avenue Boutroux",,75013.0,0.0,1.0,"{'lon': 2.377618, 'lat': 48.822744}","{'lon': 2.377618, 'lat': 48.822744}",75013.0,75013,13,1.0,2.0,48.822744,2.377618
"4, rue Jourdain",,75020.0,0.0,1.0,"{'lon': 2.389605, 'lat': 48.874518}","{'lon': 2.389605, 'lat': 48.874518}",75020.0,75020,20,1.0,2.0,48.874518,2.389605
"39 bis, rue Poliveau",Creche municipale,75005.0,1.0,0.0,"{'lon': 2.357481, 'lat': 48.839807}","{'lon': 2.357481, 'lat': 48.839807}",75005.0,75005,5,1.0,1.0,48.839807,2.357481
"42, rue du Javelot",,75013.0,0.0,1.0,"{'lon': 2.365472, 'lat': 48.824619}","{'lon': 2.365472, 'lat': 48.824619}",75013.0,75013,13,1.0,2.0,48.824619,2.365472
"37, avenue de la Bourdonnais",,75007.0,0.0,1.0,"{'lon': 2.299265, 'lat': 48.85828}","{'lon': 2.299265, 'lat': 48.85828}",75007.0,75007,7,1.0,2.0,48.85828,2.299265
"13, rue du Général Guillaumat",,75015.0,0.0,1.0,"{'lon': 2.29332, 'lat': 48.828027}","{'lon': 2.29332, 'lat': 48.828027}",75015.0,75015,15,1.0,2.0,48.828027,2.29332
"3, rue de la  Jussienne",,75002.0,0.0,1.0,"{'lon': 2.344087, 'lat': 48.865292}","{'lon': 2.344087, 'lat': 48.865292}",75002.0,75002,2,1.0,2.0,48.865292,2.344087
"48, boulevard Jourdan",,75014.0,0.0,1.0,"{'lon': 2.331066, 'lat': 48.822195}","{'lon': 2.331066, 'lat': 48.822195}",75014.0,75014,14,1.0,2.0,48.822195,2.331066
"64, rue Chardon Lagache",,75016.0,0.0,1.0,"{'lon': 2.263925, 'lat': 48.842523}","{'lon': 2.263925, 'lat': 48.842523}",75016.0,75016,16,1.0,2.0,48.842523,2.263925
"11, rue d Argenteuil",,75001.0,0.0,1.0,"{'lon': 2.333822, 'lat': 48.864893}","{'lon': 2.333822, 'lat': 48.864893}",75001.0,75001,1,1.0,2.0,48.864893,2.333822
"26, boulevard Bonne Nouvelle",Panneau B,75010.0,0.0,1.0,"{'lon': 2.350113, 'lat': 48.870282}","{'lon': 2.350113, 'lat': 48.870282}",75010.0,75010,10,1.0,2.0,48.870282,2.350113
"39, rue Alexandre Dumas",Panneau A,75011.0,0.0,1.0,"{'lon': 2.393242, 'lat': 48.853745}","{'lon': 2.393242, 'lat': 48.853745}",75011.0,75011,11,1.0,2.0,48.853745,2.393242
"14, rue Merlin",,75011.0,0.0,1.0,"{'lon': 2.38589, 'lat': 48.859847}","{'lon': 2.38589, 'lat': 48.859847}",75011.0,75011,11,1.0,2.0,48.859847,2.38589
"9, rue Jean Rey",,75015.0,0.0,1.0,"{'lon': 2.2910019999999998, 'lat': 48.855469}","{'lon': 2.2910019999999998, 'lat': 48.855469}",75015.0,75015,15,1.0,2.0,48.855469,2.2910019999999998
"19, rue Tristant Tzara",Bibliothèque Maurice Genevoix,75018.0,0.0,1.0,"{'lon': 2.363866, 'lat': 48.89502}","{'lon': 2.363866, 'lat': 48.89502}",75018.0,75018,18,1.0,2.0,48.89502,2.363866
"12, rue des Amiraux",,75018.0,0.0,1.0,"{'lon': 2.3513479999999998, 'lat': 48.894562}","{'lon': 2.3513479999999998, 'lat': 48.894562}",75018.0,75018,18,1.0,2.0,48.894562,2.3513479999999998
"10, rue Pierre Nicole",,75005.0,0.0,1.0,"{'lon': 2.34061, 'lat': 48.842291}","{'lon': 2.34061, 'lat': 48.842291}",75005.0,75005,5,1.0,2.0,48.842291,2.34061
"130, boulevard de Clichy",Panneau B : face au 130,75009.0,0.0,1.0,"{'lon': 2.334409, 'lat': 48.882984}","{'lon': 2.334409, 'lat': 48.882984}",75009.0,75009,9,1.0,2.0,48.882984,2.334409
"39, rue des Trois Bornes",,75011.0,0.0,1.0,"{'lon': 2.374589, 'lat': 48.867344}","{'lon': 2.374589, 'lat': 48.867344}",75011.0,75011,11,1.0,2.0,48.867344,2.374589
"34, boulevard Carnot",,75012.0,0.0,1.0,"{'lon': 2.4129300000000002, 'lat': 48.842109}","{'lon': 2.4129300000000002, 'lat': 48.842109}",75012.0,75012,12,1.0,2.0,48.842109,2.4129300000000002
"97, rue Ballard",,75015.0,0.0,1.0,"{'lon': 2.2787, 'lat': 48.83755}","{'lon': 2.2787, 'lat': 48.83755}",75015.0,75015,15,1.0,2.0,48.83755,2.2787
"221, boulevard Pereire",,75017.0,0.0,1.0,"{'lon': 2.289361, 'lat': 48.880446}","{'lon': 2.289361, 'lat': 48.880446}",75017.0,75017,17,1.0,2.0,48.880446,2.289361
"10, rue Vauquelin",,75005.0,0.0,1.0,"{'lon': 2.347531, 'lat': 48.841234}","{'lon': 2.347531, 'lat': 48.841234}",75005.0,75005,5,1.0,2.0,48.841234,2.347531
"60, rue Saint andré des Arts",Maison des Associations,75006.0,1.0,0.0,"{'lon': 2.339267, 'lat': 48.853577}","{'lon': 2.339267, 'lat': 48.853577}",75006.0,75006,6,1.0,1.0,48.853577,2.339267
"15, rue Lancry",,75010.0,0.0,1.0,"{'lon': 2.360338, 'lat': 48.869561}","{'lon': 2.360338, 'lat': 48.869561}",75010.0,75010,10,1.0,2.0,48.869561,2.360338
"8 / 10, rue Balanchine",,75013.0,1.0,0.0,"{'lon': 2.3735749999999998, 'lat': 48.836374}","{'lon': 2.3735749999999998, 'lat': 48.836374}",75013.0,75013,13,1.0,1.0,48.836374,2.3735749999999998
"20, rue Falguieres",,75015.0,0.0,1.0,"{'lon': 2.316507, 'lat': 48.843104}","{'lon': 2.316507, 'lat': 48.843104}",75015.0,75015,15,1.0,2.0,48.843104,2.316507
"40, rue des Pyrénées",,75020.0,0.0,1.0,"{'lon': 2.406499, 'lat': 48.850917}","{'lon': 2.406499, 'lat': 48.850917}",75020.0,75020,20,1.0,2.0,48.850917,2.406499
"60, boulevard Lannes",,75016.0,0.0,1.0,"{'lon': 2.26978, 'lat': 48.864574}","{'lon': 2.26978, 'lat': 48.864574}",75016.0,75016,16,1.0,2.0,48.864574,2.26978
"26, boulevard Bonne Nouvelle",Panneau A,75010.0,0.0,1.0,"{'lon': 2.350113, 'lat': 48.870282}","{'lon': 2.350113, 'lat': 48.870282}",75010.0,75010,10,1.0,2.0,48.870282,2.350113
"9, rue Tandou",Ecole élémentaire,75019.0,0.0,1.0,"{'lon': 2.37918, 'lat': 48.886}","{'lon': 2.37918, 'lat': 48.886}",75019.0,75019,19,1.0,2.0,48.886,2.37918
"28, avenue Rapp",,75007.0,0.0,1.0,"{'lon': 2.300202, 'lat': 48.858623}","{'lon': 2.300202, 'lat': 48.858623}",75007.0,75007,7,1.0,2.0,48.858623,2.300202
"7, rue Duranti",,75011.0,0.0,1.0,"{'lon': 2.3842689999999997, 'lat': 48.86105}","{'lon': 2.3842689999999997, 'lat': 48.86105}",75011.0,75011,11,1.0,2.0,48.86105,2.3842689999999997
"166, rue Pelleport",,75020.0,1.0,0.0,"{'lon': 2.397987, 'lat': 48.873377}","{'lon': 2.397987, 'lat': 48.873377}",75020.0,75020,20,1.0,1.0,48.873377,2.397987
"12, rue Foucroy",,75017.0,0.0,1.0,"{'lon': 2.296597, 'lat': 48.880462}","{'lon': 2.296597, 'lat': 48.880462}",75017.0,75017,17,1.0,2.0,48.880462,2.296597
"31, rue Joseph de Maistre",,75018.0,0.0,1.0,"{'lon': 2.330619, 'lat': 48.891854}","{'lon': 2.330619, 'lat': 48.891854}",75018.0,75018,18,1.0,2.0,48.891854,2.330619
"12-16, rue de la Moselle",,75019.0,0.0,1.0,"{'lon': 2.37628, 'lat': 48.885108}","{'lon': 2.37628, 'lat': 48.885108}",75019.0,75019,19,1.0,2.0,48.885108,2.37628
"7, rue du Jardinet",Ecole élémentaire,75006.0,1.0,0.0,"{'lon': 2.339941, 'lat': 48.852692}","{'lon': 2.339941, 'lat': 48.852692}",75006.0,75006,6,1.0,1.0,48.852692,2.339941
"4bis, rue de la Présentation",,75011.0,0.0,1.0,"{'lon': 2.377182, 'lat': 48.870885}","{'lon': 2.377182, 'lat': 48.870885}",75011.0,75011,11,1.0,2.0,48.870885,2.377182
84 Rue de la Mare,,75020.0,0.0,1.0,"{'lon': 2.389293, 'lat': 48.873093}","{'lon': 2.389293, 'lat': 48.873093}",75020.0,75020,20,1.0,2.0,48.873093,2.389293
Place Pinel,Entrée du Square,75013.0,1.0,0.0,"{'lon': 2.361549, 'lat': 48.833497}","{'lon': 2.361549, 'lat': 48.833497}",75013.0,75013,13,1.0,1.0,48.833497,2.361549
"12, rue Saint-Benoît",Groupe scolaire,75006.0,1.0,0.0,"{'lon': 2.3331049999999998, 'lat': 48.855128}","{'lon': 2.3331049999999998, 'lat': 48.855128}",75006.0,75006,6,1.0,1.0,48.855128,2.3331049999999998
"9, rue de Vaugirard",Ecole élémentaire,75006.0,1.0,0.0,"{'lon': 2.339836, 'lat': 48.848922}","{'lon': 2.339836, 'lat': 48.848922}",75006.0,75006,6,1.0,1.0,48.848922,2.339836
"70, avenue Daumesnil",,75012.0,0.0,1.0,"{'lon': 2.380336, 'lat': 48.844704}","{'lon': 2.380336, 'lat': 48.844704}",75012.0,75012,12,1.0,2.0,48.844704,2.380336
"17, rue Sorbier",,75020.0,0.0,1.0,"{'lon': 2.392419, 'lat': 48.866162}","{'lon': 2.392419, 'lat': 48.866162}",75020.0,75020,20,1.0,2.0,48.866162,2.392419
"7, rue Bretonneau",,75020.0,0.0,1.0,"{'lon': 2.4031700000000003, 'lat': 48.86769}","{'lon': 2.4031700000000003, 'lat': 48.86769}",75020.0,75020,20,1.0,2.0,48.86769,2.4031700000000003
"39, rue Alexandre Dumas",Panneau B,75011.0,0.0,1.0,"{'lon': 2.393242, 'lat': 48.853745}","{'lon': 2.393242, 'lat': 48.853745}",75011.0,75011,11,1.0,2.0,48.853745,2.393242
"19, rue Boissonnade",,75014.0,0.0,1.0,"{'lon': 2.332875, 'lat': 48.838886}","{'lon': 2.332875, 'lat': 48.838886}",75014.0,75014,14,1.0,2.0,48.838886,2.332875
"2, rue Japy",,75011.0,0.0,1.0,"{'lon': 2.38245, 'lat': 48.855874}","{'lon': 2.38245, 'lat': 48.855874}",75011.0,75011,11,1.0,2.0,48.855874,2.38245
"9, rue Franc Nohain",,75013.0,0.0,1.0,"{'lon': 2.375173, 'lat': 48.821395}","{'lon': 2.375173, 'lat': 48.821395}",75013.0,75013,13,1.0,2.0,48.821395,2.375173
"21/23, avenue de Saint Ouen",,75017.0,0.0,1.0,"{'lon': 2.325925, 'lat': 48.889046}","{'lon': 2.325925, 'lat': 48.889046}",75017.0,75017,17,1.0,2.0,48.889046,2.325925
"38, rue des Orteaux",,75020.0,0.0,1.0,"{'lon': 2.401315, 'lat': 48.856603}","{'lon': 2.401315, 'lat': 48.856603}",75020.0,75020,20,1.0,2.0,48.856603,2.401315
"15, rue de Monceau",,75008.0,0.0,1.0,"{'lon': 2.307069, 'lat': 48.875864}","{'lon': 2.307069, 'lat': 48.875864}",75008.0,75008,8,1.0,2.0,48.875864,2.307069
"107, boulevard Voltaire",,75011.0,0.0,1.0,"{'lon': 2.379116, 'lat': 48.85859}","{'lon': 2.379116, 'lat': 48.85859}",75011.0,75011,11,1.0,2.0,48.85859,2.379116
"6, rue Baptiste Renard",Face au 6,75013.0,0.0,1.0,"{'lon': 2.366809, 'lat': 48.828093}","{'lon': 2.366809, 'lat': 48.828093}",75013.0,75013,13,1.0,2.0,48.828093,2.366809
"12, rue Saint Benoit",,75006.0,0.0,1.0,"{'lon': 2.3331049999999998, 'lat': 48.855128}","{'lon': 2.3331049999999998, 'lat': 48.855128}",75006.0,75006,6,1.0,2.0,48.855128,2.3331049999999998
"76, boulevard Berthier",,75017.0,0.0,1.0,"{'lon': 2.304479, 'lat': 48.890553}","{'lon': 2.304479, 'lat': 48.890553}",75017.0,75017,17,1.0,2.0,48.890553,2.304479
"31, rue Pierre Semard",Panneau B,75009.0,0.0,1.0,"{'lon': 2.348291, 'lat': 48.879105}","{'lon': 2.348291, 'lat': 48.879105}",75009.0,75009,9,1.0,2.0,48.879105,2.348291
"46, rue Jenner",,75013.0,0.0,1.0,"{'lon': 2.360667, 'lat': 48.836123}","{'lon': 2.360667, 'lat': 48.836123}",75013.0,75013,13,1.0,2.0,48.836123,2.360667
"14-18, avenue Georges Lafenestre",,75014.0,0.0,1.0,"{'lon': 2.311657, 'lat': 48.825299}","{'lon': 2.311657, 'lat': 48.825299}",75014.0,75014,14,1.0,2.0,48.825299,2.311657
"27, rue Las Casés",,75007.0,0.0,1.0,"{'lon': 2.31858, 'lat': 48.858981}","{'lon': 2.31858, 'lat': 48.858981}",75007.0,75007,7,1.0,2.0,48.858981,2.31858
"39, rue des Cordelières",,75013.0,0.0,1.0,"{'lon': 2.348657, 'lat': 48.834253}","{'lon': 2.348657, 'lat': 48.834253}",75013.0,75013,13,1.0,2.0,48.834253,2.348657
"7, rue Barbanègre","école élémentaire, Panneau B",75019.0,0.0,1.0,"{'lon': 2.382858, 'lat': 48.892135}","{'lon': 2.382858, 'lat': 48.892135}",75019.0,75019,19,1.0,2.0,48.892135,2.382858
"27, rue de Poissy",,75005.0,0.0,1.0,"{'lon': 2.352272, 'lat': 48.848586}","{'lon': 2.352272, 'lat': 48.848586}",75005.0,75005,5,1.0,2.0,48.848586,2.352272
"49, rue Legendre",,75017.0,0.0,1.0,"{'lon': 2.315958, 'lat': 48.885248}","{'lon': 2.315958, 'lat': 48.885248}",75017.0,75017,17,1.0,2.0,48.885248,2.315958
"9, rue Jomard",Ecole élémentaire,75019.0,0.0,1.0,"{'lon': 2.379576, 'lat': 48.88971}","{'lon': 2.379576, 'lat': 48.88971}",75019.0,75019,19,1.0,2.0,48.88971,2.379576
"109, rue des Amandiers",,75020.0,0.0,1.0,"{'lon': 2.388636, 'lat': 48.867739}","{'lon': 2.388636, 'lat': 48.867739}",75020.0,75020,20,1.0,2.0,48.867739,2.388636
"28, rue Cambon",,75001.0,0.0,1.0,"{'lon': 2.32685, 'lat': 48.868105}","{'lon': 2.32685, 'lat': 48.868105}",75001.0,75001,1,1.0,2.0,48.868105,2.32685
"5/7, rue Neuve Saint Pierre",,75004.0,0.0,1.0,"{'lon': 2.363512, 'lat': 48.853665}","{'lon': 2.363512, 'lat': 48.853665}",75004.0,75004,4,1.0,2.0,48.853665,2.363512
"10, rue Paul Baudry",,75008.0,0.0,1.0,"{'lon': 2.307394, 'lat': 48.87234}","{'lon': 2.307394, 'lat': 48.87234}",75008.0,75008,8,1.0,2.0,48.87234,2.307394
"3, rue des Caillaux",,75013.0,0.0,1.0,"{'lon': 2.362127, 'lat': 48.822875}","{'lon': 2.362127, 'lat': 48.822875}",75013.0,75013,13,1.0,2.0,48.822875,2.362127
"20-24, avenue Georges Lafenestre",,75014.0,0.0,1.0,"{'lon': 2.311657, 'lat': 48.825299}","{'lon': 2.311657, 'lat': 48.825299}",75014.0,75014,14,1.0,2.0,48.825299,2.311657
"66, rue Olivier de Serres",,75015.0,0.0,1.0,"{'lon': 2.294959, 'lat': 48.833817}","{'lon': 2.294959, 'lat': 48.833817}",75015.0,75015,15,1.0,2.0,48.833817,2.294959
"1, rue Vauvenargues",,75018.0,0.0,1.0,"{'lon': 2.33465, 'lat': 48.891898}","{'lon': 2.33465, 'lat': 48.891898}",75018.0,75018,18,1.0,2.0,48.891898,2.33465
"5, rue Pierre Bullet",,75010.0,0.0,1.0,"{'lon': 2.358068, 'lat': 48.871589}","{'lon': 2.358068, 'lat': 48.871589}",75010.0,75010,10,1.0,2.0,48.871589,2.358068
"26, avenue du Général Sarail",,75016.0,0.0,1.0,"{'lon': 2.2549200000000003, 'lat': 48.843724}","{'lon': 2.2549200000000003, 'lat': 48.843724}",75016.0,75016,16,1.0,2.0,48.843724,2.2549200000000003
"11-13, rue Jacques Kellner",,75017.0,0.0,1.0,"{'lon': 2.32429, 'lat': 48.897262}","{'lon': 2.32429, 'lat': 48.897262}",75017.0,75017,17,1.0,2.0,48.897262,2.32429
"103, avenue Gambetta",,75020.0,0.0,1.0,"{'lon': 2.399962, 'lat': 48.866818}","{'lon': 2.399962, 'lat': 48.866818}",75020.0,75020,20,1.0,2.0,48.866818,2.399962
66/72 avenue Philippe Auguste,,75011.0,0.0,1.0,"{'lon': 2.3925359999999998, 'lat': 48.854201}","{'lon': 2.3925359999999998, 'lat': 48.854201}",75011.0,75011,11,1.0,2.0,48.854201,2.3925359999999998
"6, rue de Cotte",,75012.0,0.0,1.0,"{'lon': 2.377656, 'lat': 48.849445}","{'lon': 2.377656, 'lat': 48.849445}",75012.0,75012,12,1.0,2.0,48.849445,2.377656
"22, boulevard Poissonnière",Panneau B,75009.0,0.0,1.0,"{'lon': 2.345109, 'lat': 48.871326}","{'lon': 2.345109, 'lat': 48.871326}",75009.0,75009,9,1.0,2.0,48.871326,2.345109
"11, rue Lahire",,75013.0,0.0,1.0,"{'lon': 2.366395, 'lat': 48.829663}","{'lon': 2.366395, 'lat': 48.829663}",75013.0,75013,13,1.0,2.0,48.829663,2.366395
"122-130, rue d Aubervilliers",,75019.0,0.0,1.0,"{'lon': 2.369341, 'lat': 48.891869}","{'lon': 2.369341, 'lat': 48.891869}",75019.0,75019,19,1.0,2.0,48.891869,2.369341
20 rue de la Brèche aux loups,Collège Jules Vernes - à gauche de l'entrée,75012.0,1.0,0.0,"{'lon': 2.39417, 'lat': 48.837543}","{'lon': 2.39417, 'lat': 48.837543}",75012.0,75012,12,1.0,1.0,48.837543,2.39417
"28, rue andré Brechet",,75017.0,0.0,1.0,"{'lon': 2.324894, 'lat': 48.898947}","{'lon': 2.324894, 'lat': 48.898947}",75017.0,75017,17,1.0,2.0,48.898947,2.324894
"16, rue du Colonel Moll",,75017.0,0.0,1.0,"{'lon': 2.290012, 'lat': 48.878088}","{'lon': 2.290012, 'lat': 48.878088}",75017.0,75017,17,1.0,2.0,48.878088,2.290012
